[{"id":2,"name":"Oriflame","coordinates":{"x":12,"y":3.0},"creationDate":{"dateTime":{"date":{"year":2020,"month":9,"day":13},"time":{"hour":20,"minute":53,"second":35,"nano":296793000}},"offset":{"totalSeconds":10800},"zone":{"id":"Europe/Moscow"}},"annualTurnover":1.0E7,"fullName":"Oriflame cosmetic","employeesCount":2,"type":"COMMERCIAL","officialAddress":{"street":"Красная","town":"Москва"}},{"id":3,"name":"Mir","coordinates":{"x":5,"y":90.0},"creationDate":{"dateTime":{"date":{"year":2020,"month":9,"day":13},"time":{"hour":20,"minute":53,"second":35,"nano":297791900}},"offset":{"totalSeconds":10800},"zone":{"id":"Europe/Moscow"}},"annualTurnover":6000000.0,"fullName":"OOO Mir","employeesCount":5,"type":"PUBLIC","officialAddress":{"street":"Гороховая","town":"Санкт-Петербург"}},{"id":4,"name":"Ermolino","coordinates":{"x":8,"y":10.0},"creationDate":{"dateTime":{"date":{"year":2020,"month":9,"day":13},"time":{"hour":20,"minute":53,"second":35,"nano":297791900}},"offset":{"totalSeconds":10800},"zone":{"id":"Europe/Moscow"}},"annualTurnover":2000000.0,"fullName":"Ermolino","employeesCount":1,"type":"COMMERCIAL","officialAddress":{"street":"Идейная","town":"Луга"}},{"id":5,"name":"Tinkoff","coordinates":{"x":1,"y":7.0},"creationDate":{"dateTime":{"date":{"year":2020,"month":9,"day":13},"time":{"hour":20,"minute":53,"second":35,"nano":297791900}},"offset":{"totalSeconds":10800},"zone":{"id":"Europe/Moscow"}},"annualTurnover":1.8E8,"fullName":"Tinkoff Bank","employeesCount":3,"type":"GOVERNMENT","officialAddress":{"street":"Железноводская","town":"Санкт-Петербург"}},{"id":6,"name":"Test","coordinates":{"x":423,"y":234.0},"creationDate":{"dateTime":{"date":{"year":2020,"month":9,"day":13},"time":{"hour":20,"minute":53,"second":35,"nano":297791900}},"offset":{"totalSeconds":10800},"zone":{"id":"Europe/Moscow"}},"annualTurnover":14.0,"fullName":"34","employeesCount":354,"type":"TRUST","officialAddress":{"street":"32","town":"32"}}]